[
  {
    "address": "Тульская, 136 Д",
    "location": "54.50809, 37.11640",
    "name": "ТЦ Слобода",
    "phones": "8 (905) 625 05 11",
    "working_hours": "Без выходных:09:00 - 19:00"
  },
  {
    "address": "Пугачева, 5",
    "location": "50.59084, 36.59734",
    "name": "ТЦ Европа",
    "phones": "8 (960) 628 44 21",
    "working_hours": "Без выходных:10:00 - 20:00"
  },
  {
    "address": "Щорса, 8 Д",
    "location": "50.58516, 36.565457",
    "name": "ТЦ Атлас",
    "phones": "8 (960) 628 45 00",
    "working_hours": "Без выходных:10:00 - 20:00"
  },
  {
    "address": "Богдана Хмельницкого пр-т, 164",
    "location": "50.64208, 36.572086",
    "name": "ТЦ РИО",
    "phones": "8 (960) 628 45 01",
    "working_hours": "Без выходных:10:00 - 22:00"
  },
  {
    "address": "п.Северный, Березовая, 1 Б",
    "location": "50.65852, 36.562627",
    "name": "ТЦ Стройдепо",
    "phones": "8 (960) 628 45 24",
    "working_hours": "Без выходных:10:00 - 20:00"
  },
  {
    "address": "Щорса, 64",
    "location": "50.55254, 36.569005",
    "name": "ТЦ Ситимолл",
    "phones": "",
    "working_hours": "Без выходных:10:00 - 22:00"
  },
  {
    "address": "Матросовская, 66",
    "location": "51.37583, 42.074508",
    "name": "ТЦ Парус",
    "phones": "8 (903) 656 31 42",
    "working_hours": "Без выходных9:00 - 21:00"
  },
  {
    "address": "3 Интернационала, 13",
    "location": "53.31069, 34.305789",
    "name": "ТЦ 3 Интернационала",
    "phones": "8 (961) 104 82 81",
    "working_hours": "Без выходных:10:00 - 20:00"
  },
  {
    "address": "Московский пр-т, 6 А",
    "location": "53.21998, 34.38310",
    "name": "ТЦ Успех",
    "phones": "8 (961) 104 83 05",
    "working_hours": "Без выходных:10:00 - 20:00"
  },
  {
    "address": "Авиационная, 1 А",
    "location": "53.25936, 34.32551",
    "name": "ТЦ Айсберг",
    "phones": "8 (961) 104 52 55",
    "working_hours": "Без выходных:10:00 - 20:00"
  },
  {
    "address": "2-я Мичурина, 42",
    "location": "53.25672, 34.440330",
    "name": "ТЦ МБ",
    "phones": "8 (905) 103 34 44",
    "working_hours": "пн-сб:  10:00 - 19:00вс: 10.00 - 18:00"
  },
  {
    "address": "Ленинский пр-т, 156 Б",
    "location": "51.68723, 39.26662",
    "name": "ТЦ Перестройка",
    "phones": "8 (960) 135 95 17",
    "working_hours": "Без выходных:09:00 - 20:00"
  },
  {
    "address": "Космонавтов, 27 А",
    "location": "51.65737, 39.15915",
    "name": "ТЦ Карусель",
    "phones": "8 (960) 135 95 06",
    "working_hours": "Без выходных:10:00 - 20:00"
  },
  {
    "address": "Победы б-р, 23 Б",
    "location": "51.71087, 39.15963",
    "name": "ТЦ Арена",
    "phones": "8 (960) 135 95 12",
    "working_hours": "Без выходных:10:00 - 22:00"
  },
  {
    "address": "Московский пр-т, 90/1",
    "location": "51.7066, 39.18266",
    "name": "ТЦ Рынок Воронежский",
    "phones": "8 (903) 651 93 62",
    "working_hours": "Без выходных:10:00 - 20:00"
  },
  {
    "address": "Репина, 18",
    "location": "55.20046, 34.300022",
    "name": "ТЦ Orange",
    "phones": "8 (962) 199 43 21",
    "working_hours": "Без выходных:10:00 - 19:00"
  },
  {
    "address": "Молодцова, 20 А",
    "location": "53.96888, 38.31683",
    "name": "м-н Центральный",
    "phones": "8 (960) 611 75 73",
    "working_hours": "Без выходных:10:00 - 20:00"
  },
  {
    "address": "Ленина, 57",
    "location": "52.34884, 35.34423",
    "name": "ТЦ Европа",
    "phones": "8 (930) 853 66 95",
    "working_hours": "Без выходных:10:00 - 20:00"
  },
  {
    "address": "Грабцевское ш., 4 Б",
    "location": "54.52218, 36.286898",
    "name": "ТЦ Маяк",
    "phones": "8 (903) 026 67 61",
    "working_hours": "пн-пт: с 10:00 - 20:00сб-вс: 10:00 - 18:00"
  },
  {
    "address": "Дзержинского, 37",
    "location": "54.51318, 36.25516",
    "name": "ТЦ Феникс",
    "phones": "8 (903) 026 67 63",
    "working_hours": "Без выходных:10:00 - 19:00"
  },
  {
    "address": "Суворова, 113",
    "location": "54.51704, 36.25604",
    "name": "ТЦ Семейный",
    "phones": "8 (905) 641 48 31",
    "working_hours": "Без выходных:10:00 - 20:00"
  },
  {
    "address": "1-й Академический пр-д, 5, корп. 1Д",
    "location": "54.48689, 36.225253",
    "name": "ТЦ Новый Дом",
    "phones": "8 (960) 518 40 53",
    "working_hours": "пн-сб: 10:00 - 20:00вс: 10:00 - 18:00"
  },
  {
    "address": "Октябрьская, 5",
    "location": "52.74704, 32.237975",
    "name": "ТЦ Московский",
    "phones": "8 (961) 104 83 06",
    "working_hours": "Без выходных:10:00 - 20:00"
  },
  {
    "address": "Дружбы пр-т, 9 А",
    "location": "51.74245, 36.13351",
    "name": "ТЦ Европа",
    "phones": "8 (909) 238 18 13",
    "working_hours": "Без выходных:10:00 - 21:00"
  },
  {
    "address": "Кулакова, 28",
    "location": "51.66587, 36.140122",
    "name": "ТЦ Льговский",
    "phones": "8 (960) 694 61 24",
    "working_hours": "Без выходных:10:00 - 20:00"
  },
  {
    "address": "Кулакова, 144",
    "location": "51.66169, 36.13678",
    "name": "ТЦ Поворот",
    "phones": "8 (909) 238 22 39",
    "working_hours": "Без выходных:09:00 - 20:00"
  },
  {
    "address": "Энергетиков, 34",
    "location": "51.65902, 35.677557",
    "name": "ТЦ Армада",
    "phones": "8 (909) 239 14 48",
    "working_hours": "Без выходных:10:00 - 20:00"
  },
  {
    "address": "Пушкина, 36",
    "location": "52.42065, 37.59659",
    "name": "ТЦ СтройАрсенал",
    "phones": "8 (906) 665 04 44",
    "working_hours": "пн-пт: 09:00 - 18:00сб-вс: 09:00 - 16:00"
  },
  {
    "address": "Коммунистическая, 21",
    "location": "50.98221, 39.50339",
    "name": "ТЦ Корона",
    "phones": "8 (903) 651 91 24",
    "working_hours": "Без выходных:10:00 - 19:00"
  },
  {
    "address": "Маяковского, 4 А",
    "location": "53.86065, 34.44283",
    "name": "ТЦ Квадрат",
    "phones": "8 (910) 524 12 28",
    "working_hours": "Без выходных:09:00 - 20:30"
  },
  {
    "address": "Тургенева, 137",
    "location": "53.28882, 36.590493",
    "name": "ТЦ Тургенева",
    "phones": "8 (919) 208 78 04",
    "working_hours": "Без выходных:09:00 - 19:00"
  },
  {
    "address": "Рязанское ш., 9 Д",
    "location": "54.02608, 38.31701",
    "name": "ТЦ Пятерочка",
    "phones": "8 (903) 841 66 76",
    "working_hours": "Без выходных:10:00 - 19:00"
  },
  {
    "address": "Лескова, 19",
    "location": "52.98285, 36.058358",
    "name": "ТЦ Протон",
    "phones": "8 (910) 267 54 03",
    "working_hours": "пн-сб: 10:00 - 19:00вс: 10:00 - 17:30"
  },
  {
    "address": "Московское ш., 137/1",
    "location": "53.00342, 36.13576",
    "name": "ТЦ Пенаты",
    "phones": "8 (910) 267 54 43",
    "working_hours": "пн-пт:  09:00 - 19:00сб-вс: 09.00 - 17:00"
  },
  {
    "address": "Комсомольская, 287",
    "location": "52.92685, 36.02551",
    "name": "ТЦ Южный",
    "phones": "8 (915)  501 98 96",
    "working_hours": "пн-сб: 10:00 - 19:00вс: 10:00 - 18:00"
  },
  {
    "address": "Московское ш., 126",
    "location": "53.00122, 36.14044",
    "name": "ТЦ Дом-Сад-Огород",
    "phones": "8 (919) 208 77 40",
    "working_hours": "пн-сб: 10:00 - 19:00вс: 10:00 - 18:00"
  },
  {
    "address": "Кромское ш., 23",
    "location": "52.91808, 36.01028",
    "name": "ТЦ Гринн",
    "phones": "8 (915) 500 04 09",
    "working_hours": "Без выходных:10:00 - 22:00"
  },
  {
    "address": "Юных Ленинцев пр-т, 61",
    "location": "55.48199, 37.56485",
    "name": "МЦ Nobby",
    "phones": "8 (905) 724 19 85",
    "working_hours": "Без выходных:10:00 - 21:00"
  },
  {
    "address": "Высоковольтная, 48 А",
    "location": "54.61969, 39.69777",
    "name": "МЦ 4 Комнаты",
    "phones": "8 (906) 542 51 60",
    "working_hours": "пн-сб: 10:00 - 20:00вс: 10:00 - 18:00"
  },
  {
    "address": "Московское ш., 21",
    "location": "54.63435, 39.688800",
    "name": "ТРЦ Премьер",
    "phones": "8 (965) 714 93 16",
    "working_hours": "Без выходных:10:00 - 22:00"
  },
  {
    "address": "Яблочкова пр-д, 4 Б",
    "location": "54.60787, 39.77034",
    "name": "МЦ НИТИ-2",
    "phones": "8 (965) 714 58 41",
    "working_hours": "пн-сб: 10:00 - 20:00вс: 10:00 - 18:00"
  },
  {
    "address": "Смольянинова, 2",
    "location": "54.78314, 32.090472",
    "name": "ТЦ Салют",
    "phones": "8 (906) 518 45 39",
    "working_hours": "пн-сб: 10:00 - 19:00вс: 10:00 - 17:00"
  },
  {
    "address": "Индустриальная, 2",
    "location": "54.77035, 32.10348",
    "name": "ТЦ Дом мебели",
    "phones": "8 (906) 518 45 58",
    "working_hours": "пн-сб: 10:00 - 19:00вс: 10:00 - 17:00"
  },
  {
    "address": "2-я Садовая, 25 А (2 этаж)",
    "location": "54.79377, 32.04270",
    "name": "ТКК СЛАВЯНСКИЙ",
    "phones": "8 (962) 199 85 30",
    "working_hours": "Без выходных:09:00 - 18:00"
  },
  {
    "address": "Прядченко, 152",
    "location": "51.30712, 37.878767",
    "name": "ТЦ Квадрат",
    "phones": "8 (960) 628 45 39",
    "working_hours": "Без выходных:10:00 - 20:00"
  },
  {
    "address": "Надежда мкр-н, 5",
    "location": "51.316791, 37.903731",
    "name": "ТЦ Все для Вас",
    "phones": "8 (960) 628 45 40",
    "working_hours": "Без выходных:10:00 - 20:00"
  },
  {
    "address": "Коммунальная, 21 Б",
    "location": "52.722772, 41.445727",
    "name": "ТЦ 21 Век",
    "phones": "8 (905) 123 58 39",
    "working_hours": "вт-сб: 09:00 - 19:00вс-пн: 09:00 - 17:00"
  },
  {
    "address": "Рылеева, 83",
    "location": "52.77129, 41.41454",
    "name": "ТЦ Европа",
    "phones": "8 (909) 233 14 00",
    "working_hours": "Без выходных:09:00 - 21:00"
  },
  {
    "address": "Чичерина/Мичуринская, 27/211",
    "location": "52.76642, 41.39724",
    "name": "ТЦ Браво Сити",
    "phones": "8 (961) 037 81 03",
    "working_hours": "Без выходных:10:00 - 22:00"
  },
  {
    "address": "Металлургов, 89 А",
    "location": "54.19524, 37.66417",
    "name": "ТЦ Восточный",
    "phones": "8 (903) 421 67 35",
    "working_hours": "Без выходных:10:00 - 20:00"
  },
  {
    "address": "Лукашина, 1 А",
    "location": "54.01587, 37.508948",
    "name": "ТЦ БУМ",
    "phones": "8 (961) 146 07 27",
    "working_hours": "Без выходных:09:00 - 19:00"
  }
]